,rateRoll_des,ratePitch_des,rateYaw_des,rateRoll,ratePitch,rateYaw,roll,pitch,yaw,roll_d,pitch_d,yaw_d,T,R,P,Y,vx,vy,vz,z
0,0.0,0.0,-0.0,4.183,-0.115,1.318,0.4,0.5,2.1,0.0,0.0,0.0,32767.0,2086.0,16938.0,5829.0,0.016,0.026000000000000002,1.1280000000000001,1.238
1,0.0,5.743,-0.0,2.235,-3.151,3.782,0.4,0.4,2.1,0.0,0.0,0.0,32767.0,2624.0,32767.0,2244.0,0.016,0.024,1.118,1.249
2,0.0,22.377,-0.0,-0.057,-1.203,6.417,0.4,0.4,2.2,0.0,0.0,0.0,32767.0,-7760.0,32767.0,4023.0,0.015,0.024,1.116,1.26
3,0.0,49.008,-0.0,2.235,8.193,9.11,0.5,0.6,2.3,0.0,0.0,0.0,32767.0,1173.0,32767.0,1425.0,0.014,0.024,1.11,1.2710000000000001
4,0.0,84.741,-0.0,3.151,28.591,10.714,0.5,0.9,2.4,0.0,0.0,0.0,32767.0,-813.0,10039.0,4947.0,0.005,0.01,1.103,1.282
5,0.0,128.683,-0.0,4.011,58.499,12.892,0.5,1.5,2.5,0.0,0.0,0.0,32767.0,-328.0,13787.0,1088.0,0.002,0.009000000000000001,1.095,1.293
6,0.0,179.94,-0.0,6.188,96.142,15.986,0.6,2.5,2.6,0.0,0.0,0.0,32767.0,2457.0,12575.0,2648.0,-0.007,0.009000000000000001,1.063,1.3
7,0.0,237.618,-0.0,7.678,142.323,17.189,0.7,4.0,2.8,0.0,0.0,0.0,32767.0,3528.0,14034.0,3654.0,-0.011,0.007,1.052,1.31
8,0.0,300.824,-0.0,9.454,197.499,19.366,0.7,6.0,3.0,0.0,0.0,0.0,32767.0,-4074.0,16118.0,131.0,-0.013000000000000001,0.005,1.043,1.321
9,0.0,368.662,-0.0,13.35,258.519,21.028,0.9,8.7,3.1,0.0,0.0,0.0,32767.0,-2532.0,14182.0,3837.0,-0.028,0.003,1.031,1.331
10,0.0,440.24,-0.0,17.59,327.273,22.345,1.0,12.0,3.3,0.0,0.0,0.0,32767.0,-1501.0,16505.0,1338.0,-0.049,0.0,0.973,1.333
11,0.0,514.663,-0.0,18.392,398.263,24.752,1.1,16.0,3.5,0.0,0.0,0.0,32767.0,-3549.0,11675.0,3269.0,-0.052000000000000005,-0.001,0.961,1.343
12,0.0,591.038,-0.0,23.377,471.773,25.21,1.3,20.9,3.6,0.0,0.0,0.0,32767.0,-3300.0,12788.0,932.0,-0.078,-0.006,0.9470000000000001,1.352
13,0.0,668.47,-0.0,25.84,546.888,28.075,1.5,26.4,3.8,0.0,0.0,0.0,32767.0,-8039.0,19443.0,3956.0,-0.122,-0.011,0.932,1.361
14,0.0,746.066,-0.0,30.768,624.066,27.445,1.8,32.7,3.9,0.0,0.0,0.0,32767.0,-4557.0,12049.0,4678.0,-0.136,-0.014,0.793,1.348
15,0.0,822.932,-0.0,32.888,703.535,30.825,2.1,39.7,4.0,0.0,0.0,0.0,32767.0,-6171.0,14693.0,1420.0,-0.191,-0.021,0.771,1.356
16,0.0,898.174,-0.0,39.706,779.509,31.054,2.5,47.9,4.0,0.0,0.0,0.0,32767.0,-9308.0,14886.0,5701.0,-0.219,-0.026000000000000002,0.747,1.364
17,0.0,970.897,-0.0,44.404,852.676,33.002,3.1,56.5,3.8,0.0,0.0,0.0,32767.0,-8172.0,14977.0,3113.0,-0.304,-0.04,0.28,1.295
18,0.0,1040.209,-0.0,50.248,924.124,34.32,4.0,65.8,3.3,0.0,0.0,0.0,32767.0,-176.0,9068.0,3612.0,-0.376,-0.049,0.232,1.298
19,0.0,1105.215,-0.0,53.228,990.529,35.466,6.8,76.6,1.0,0.0,0.0,0.0,32767.0,-10920.0,13108.0,5205.0,-0.501,-0.077,-0.513,1.187
20,0.0,1165.021,-0.0,59.989,1054.815,37.07,25.7,87.0,-17.3,0.0,0.0,0.0,32767.0,-4939.0,12046.0,5287.0,-0.596,-0.095,-0.606,1.181
21,0.0,1218.733,-0.0,64.572,1114.747,38.445,174.2,81.4,-165.3,0.0,0.0,0.0,32767.0,-5019.0,14735.0,574.0,-0.672,-0.107,-0.71,1.174
22,0.0,1265.458,-0.0,69.557,1170.839,40.394,179.2,69.7,-169.7,0.0,0.0,0.0,32767.0,-9300.0,5898.0,-497.0,-0.761,-0.115,-0.8290000000000001,1.167
23,0.0,1304.301,-0.0,76.318,1228.02,40.508,-179.2,57.4,-170.7,0.0,0.0,0.0,32767.0,-10920.0,-2753.0,5767.0,-0.846,-0.124,-0.974,1.158
24,0.0,1334.368,-0.0,80.443,1281.42,43.373,-178.1,43.3,-171.0,0.0,0.0,0.0,32767.0,-7000.0,-9695.0,-285.0,-0.914,-0.138,-1.143,1.1480000000000001
25,0.0,1354.767,-0.0,88.751,1328.746,42.227,-177.3,29.7,-170.8,0.0,0.0,0.0,32767.0,-10920.0,-11483.0,10406.0,-1.3,-0.176,-1.351,1.137
26,0.0,1354.767,-0.0,94.022,1365.588,46.009,-176.4,16.0,-170.5,0.0,0.0,0.0,32767.0,-3919.0,-18643.0,-2866.0,-1.407,-0.194,-1.572,1.123
27,0.0,1364.602,-0.0,94.595,1389.48,45.779,-175.4,-0.7,-169.9,0.0,0.0,0.0,32767.0,-10920.0,-26392.0,7376.0,-1.44,-0.20700000000000002,-1.806,1.106
28,0.0,1359.641,-0.0,100.726,1404.262,48.415,-174.3,-14.8,-169.1,0.0,0.0,0.0,32767.0,-10324.0,-27804.0,1284.0,-2.196,-0.299,-2.247,1.079
29,0.0,1343.007,-0.0,108.003,1398.361,48.587,-172.5,-31.1,-167.7,0.0,0.0,0.0,32767.0,-10920.0,-32767.0,6134.0,-2.201,-0.31,-2.5100000000000002,1.055
30,0.0,1316.377,-0.0,116.883,1374.239,50.535,-170.0,-44.9,-165.7,0.0,0.0,0.0,32767.0,-10920.0,-32767.0,2547.0,-2.8040000000000003,-0.397,-3.067,1.012
31,0.0,1280.644,-0.0,119.805,1339.747,51.91,-166.0,-58.0,-162.1,0.0,0.0,0.0,32767.0,-7003.0,-32767.0,2129.0,-2.809,-0.406,-3.349,0.979
32,0.0,1236.701,-0.0,122.728,1300.843,52.254,-156.4,-71.2,-153.1,0.0,0.0,0.0,32767.0,-10920.0,-32767.0,7309.0,-2.763,-0.41100000000000003,-3.598,0.9450000000000001
33,0.0,1185.444,-0.0,127.54,1255.809,54.603,-123.2,-81.5,-120.3,0.0,0.0,0.0,32767.0,-5951.0,-7042.0,394.0,-2.856,-0.422,-3.956,0.896
34,0.0,1127.766,-0.0,126.624,1211.978,55.119,-41.3,-80.0,-39.0,0.0,0.0,0.0,32767.0,-5920.0,-16371.0,6070.0,-2.7920000000000003,-0.423,-4.1690000000000005,0.855
35,0.0,1064.561,-0.0,125.879,1167.172,55.921,-17.0,-70.1,-15.3,0.0,0.0,0.0,32767.0,-8641.0,-21857.0,3506.0,-2.72,-0.422,-4.353,0.8130000000000001
36,0.0,996.722,-0.0,129.66,1121.049,57.983,-4.5,-40.8,-4.6,0.0,0.0,0.0,32767.0,-9524.0,-26315.0,7208.0,-2.669,-0.41200000000000003,-4.416,0.783
37,0.0,925.144,-0.0,133.843,1059.628,57.582,0.0,0.0,0.0,0.0,0.0,0.0,32767.0,-4908.0,-32178.0,1432.0,-4.069,-0.809,-9.687,0.151
38,0.0,850.721,-0.0,133.155,1001.931,59.702,1.3,10.0,0.5,0.0,0.0,0.0,32767.0,-2653.0,-32767.0,2203.0,-0.196,-0.03,0.0,0.0
39,0.0,774.346,-0.0,128.858,943.146,57.238,2.6,20.1,0.7,0.0,0.0,0.0,32767.0,-5410.0,-32767.0,4279.0,-0.199,-0.034,0.001,-0.191
40,0.0,696.914,-0.0,118.545,882.641,57.296,3.8,29.1,0.8,0.0,0.0,0.0,32767.0,5521.0,-32767.0,245.0,-0.352,-0.058,-0.032,1.699
41,0.0,619.318,-0.0,109.492,820.418,56.379,5.0,37.3,0.7,0.0,0.0,0.0,32767.0,8941.0,-32767.0,2534.0,-0.398,-0.066,-0.052000000000000005,1.698
42,0.0,542.452,-0.0,103.935,757.622,55.749,6.2,44.9,0.5,0.0,0.0,0.0,32767.0,-5773.0,-32767.0,1820.0,-0.446,-0.073,-0.076,1.698
43,0.0,467.211,-0.0,107.086,696.659,55.52,11.1,61.6,-2.9,0.0,0.0,0.0,32767.0,-3404.0,-32767.0,6073.0,-0.501,-0.083,-0.107,1.697
44,0.0,394.487,-0.0,103.992,642.973,57.009,13.9,68.0,-4.8,0.0,0.0,0.0,32767.0,5867.0,-32767.0,4867.0,-0.436,-0.076,-0.8320000000000001,1.027
45,0.0,325.176,-0.0,87.319,592.381,57.582,17.8,73.8,-8.0,0.0,0.0,0.0,32767.0,10920.0,-32767.0,3447.0,-0.505,-0.09,-0.904,1.018
46,0.0,260.17,-0.0,70.302,536.403,58.785,24.0,79.0,-13.7,0.0,0.0,0.0,32767.0,10920.0,-32767.0,8120.0,-0.5750000000000001,-0.10300000000000001,-0.984,1.0090000000000001
47,0.0,260.17,-0.0,41.425,482.66,61.593,36.6,83.4,-26.1,0.0,0.0,0.0,32767.0,10920.0,-32767.0,4228.0,-0.645,-0.11800000000000001,-1.073,0.999
48,0.0,146.652,-0.0,26.413,397.633,63.14,67.8,86.4,-57.0,0.0,0.0,0.0,32767.0,6591.0,-32767.0,5044.0,-0.713,-0.131,-1.168,0.988
49,0.0,146.652,-0.0,23.72,270.436,63.77,116.1,87.0,-105.2,0.0,0.0,0.0,32767.0,-4419.0,25479.0,4975.0,-0.786,-0.146,-1.2670000000000001,0.976
50,0.0,99.927,-0.0,23.033,132.525,65.833,142.4,86.7,-131.3,0.0,0.0,0.0,32767.0,10700.0,32767.0,5280.0,-0.865,-0.162,-1.368,0.962
51,0.0,61.084,-0.0,11.688,11.115,66.635,153.7,87.0,-142.5,0.0,0.0,0.0,32767.0,10920.0,32767.0,3055.0,-0.9460000000000001,-0.179,-1.47,0.9480000000000001
52,0.0,31.016,-0.0,-10.084,-76.261,68.411,161.3,88.0,-150.3,0.0,0.0,0.0,32767.0,10920.0,32767.0,9281.0,-1.028,-0.196,-1.573,0.933
53,0.0,10.618,-0.0,-27.445,-138.77,74.771,-166.6,89.5,177.4,0.0,0.0,0.0,32767.0,10777.0,32767.0,8058.0,-1.11,-0.214,-1.674,0.917
54,0.0,0.783,-0.0,-33.976,-175.726,78.381,-35.0,88.4,45.4,0.0,0.0,0.0,32767.0,3521.0,32767.0,10920.0,-1.194,-0.231,-1.7730000000000001,0.899
55,0.0,0.0,-0.0,-43.545,-185.581,85.886,-29.6,86.4,39.6,0.0,0.0,0.0,39767.0,5725.0,32767.0,8238.0,-1.283,-0.25,-1.87,0.881
56,0.0,0.0,-0.0,-50.764,-170.799,88.178,-29.4,84.5,38.8,0.0,0.0,0.0,39767.0,7855.0,32767.0,10222.0,-1.373,-0.267,-1.964,0.862
57,0.0,0.0,-0.0,-51.795,-142.953,92.991,-30.8,82.8,39.8,0.0,0.0,0.0,39767.0,-2554.0,32767.0,6609.0,-1.462,-0.28400000000000003,-2.056,0.842
58,0.0,0.0,-0.0,-45.665,-98.033,96.314,-33.5,81.5,42.1,0.0,0.0,0.0,39767.0,-4481.0,13512.0,10920.0,-1.558,-0.301,-2.146,0.8210000000000001
59,0.0,0.0,-0.0,-38.789,-40.852,102.789,-175.8,31.3,-175.1,0.0,0.0,0.0,39767.0,-4901.0,-17670.0,6222.0,-1.653,-0.317,-2.232,0.799
60,0.0,0.0,-0.0,-36.784,11.459,106.341,-176.1,28.9,-176.1,0.0,0.0,0.0,39767.0,-5377.0,-29797.0,10920.0,2.488,0.296,-5.367,0.133
61,0.0,0.0,-0.0,-29.908,36.555,112.071,-175.8,25.9,-177.9,0.0,0.0,0.0,39767.0,-8371.0,-20727.0,8711.0,2.557,0.316,-5.359,0.122
62,0.0,0.0,-0.0,-13.808,24.122,116.482,-176.0,22.6,-179.4,0.0,0.0,0.0,39767.0,-10920.0,776.0,9521.0,2.702,0.314,-5.3,0.112
63,0.0,0.0,-0.0,-2.521,-5.615,117.399,-176.5,19.6,179.3,0.0,0.0,0.0,39767.0,-10920.0,21041.0,6696.0,2.886,0.34,-5.208,0.10400000000000001
64,0.0,0.0,-0.0,4.584,-36.497,119.29,-177.2,16.7,177.9,0.0,0.0,0.0,39767.0,-2868.0,32593.0,5719.0,3.079,0.38,-5.102,0.096
65,0.0,0.0,-0.0,2.521,-54.202,120.722,-178.3,13.8,176.5,0.0,0.0,0.0,39767.0,5625.0,32367.0,9264.0,3.289,0.427,-4.965,0.092
66,0.0,0.0,-0.0,2.12,-59.702,123.472,-179.7,11.1,175.0,0.0,0.0,0.0,39767.0,5054.0,22859.0,6426.0,3.505,0.47500000000000003,-4.805,0.091
67,0.0,0.0,-0.0,6.589,-53.801,122.899,178.7,8.1,173.4,0.0,0.0,0.0,39767.0,-10920.0,20434.0,7404.0,3.71,0.523,-4.65,0.09
68,0.0,0.0,-0.0,20.913,-43.086,122.899,176.8,4.9,171.7,0.0,0.0,0.0,39767.0,-10920.0,11750.0,5869.0,3.915,0.5710000000000001,-4.493,0.092
69,0.0,0.0,-0.0,33.174,-35.638,122.842,174.8,1.8,169.9,0.0,0.0,0.0,39767.0,-10920.0,11309.0,1360.0,4.127,0.619,-4.308,0.097
70,0.0,0.0,-0.0,41.883,-26.757,118.831,172.5,-1.6,168.0,0.0,0.0,0.0,39767.0,-6830.0,6308.0,10920.0,4.327,0.661,-4.1370000000000005,0.10200000000000001
71,0.0,0.0,-0.0,41.998,-18.335,120.207,170.2,-4.8,166.0,0.0,0.0,0.0,39767.0,4753.0,3782.0,-6130.0,4.532,0.705,-3.951,0.11
72,0.0,0.0,-0.0,36.956,-9.568,114.477,167.5,-8.1,163.8,0.0,0.0,0.0,39767.0,-2007.0,-1960.0,10920.0,4.728,0.74,-3.7880000000000003,0.116
73,0.0,0.0,-0.0,34.206,0.229,116.654,164.5,-11.5,161.3,0.0,0.0,0.0,39767.0,-1546.0,-4429.0,-1068.0,4.93,0.775,-3.62,0.122
74,0.0,0.0,-0.0,38.159,1.719,113.732,161.4,-14.8,158.8,-20.0,-12.9,0.0,39767.0,-10920.0,-2033.0,7674.0,5.142,0.809,-3.4490000000000003,0.13
75,-970.546,88.73,-699.783,43.831,-3.209,114.248,158.3,-17.8,156.0,-20.0,-11.2,0.0,39767.0,-32767.0,-32767.0,32767.0,5.355,0.842,-3.2920000000000003,0.134
76,-1095.887,9.17,-947.881,43.831,-19.022,99.809,155.0,-20.7,153.3,-20.0,-9.8,0.0,68767.0,-32767.0,32767.0,32767.0,5.573,0.871,-3.1310000000000002,0.137
77,-1061.881,56.911,-608.921,36.154,-44.977,89.84,151.8,-22.9,150.8,-20.0,-8.5,0.0,68767.0,-32767.0,32767.0,32767.0,5.799,0.902,-2.979,0.137
78,-1067.902,61.092,-921.087,29.45,-80.214,79.011,148.4,-24.7,148.5,-20.0,-7.2,0.0,68767.0,-32767.0,32767.0,32767.0,6.023,0.933,-2.843,0.133
79,-1053.726,80.994,-909.452,27.559,-119.347,68.01,144.5,-26.5,146.1,-20.0,-6.0,0.0,68767.0,-32767.0,32767.0,32767.0,6.258,0.966,-2.693,0.129
80,-1039.014,97.967,-899.131,27.559,-160.543,56.207,141.6,-27.4,144.6,-20.0,-6.0,0.0,68767.0,-32767.0,32767.0,32767.0,6.527,1.0,-2.479,0.13
81,-1022.126,115.677,-889.16,28.19,-205.577,45.779,138.2,-28.7,143.2,-20.0,-5.2,0.0,68767.0,-32767.0,32767.0,32767.0,6.766,1.038,-2.334,0.126
82,-986.16,143.799,-438.58,32.716,-250.956,35.065,136.1,-29.0,142.9,-20.0,-4.4,0.0,68767.0,-32767.0,32767.0,32767.0,7.046,1.081,-2.086,0.128
83,-978.207,151.324,-544.549,40.336,-299.542,24.523,134.4,-29.3,143.2,-20.0,-4.3,0.0,68767.0,-32767.0,32767.0,32767.0,7.283,1.1300000000000001,-1.919,0.127
84,-972.762,154.621,-567.497,46.696,-343.03,16.558,132.3,-30.3,143.8,-20.0,-4.5,0.0,68767.0,-32767.0,32767.0,32767.0,7.529,1.192,-1.728,0.129
85,-964.557,160.065,-509.327,54.259,-379.756,10.485,132.2,-30.0,145.7,-20.0,-4.7,0.0,68767.0,-32767.0,32767.0,32767.0,7.837,1.284,-1.409,0.14
86,-968.524,157.144,-694.461,62.624,-411.899,5.959,132.3,-29.8,148.0,-20.0,-5.8,0.0,68767.0,-32767.0,32767.0,32767.0,8.069,1.3800000000000001,-1.2750000000000001,0.14400000000000002
87,-973.526,150.734,-723.055,82.219,-446.506,-1.261,132.3,-30.5,150.6,-20.0,-7.0,0.0,68767.0,-32767.0,32767.0,32767.0,8.314,1.497,-1.089,0.153
88,-974.097,147.868,-727.561,94.423,-482.889,-6.589,133.9,-29.6,154.2,-20.0,-8.4,0.0,68767.0,-32767.0,32767.0,32767.0,8.603,1.657,-0.772,0.17200000000000001
89,-983.677,135.242,-856.372,92.991,-517.381,-11.287,135.7,-28.6,158.0,-20.0,-10.2,0.0,68767.0,-32767.0,32767.0,32767.0,8.816,1.8,-0.629,0.184
90,-994.207,118.735,-905.318,89.553,-541.273,-13.98,137.2,-28.6,161.9,-20.0,-12.1,0.0,68767.0,-32767.0,32767.0,32767.0,9.033,1.962,-0.466,0.2
91,-1003.375,107.297,-942.394,91.788,-561.04,-17.647,139.6,-26.7,166.2,-20.0,-14.1,0.0,68767.0,-32767.0,32767.0,32767.0,9.288,2.181,-0.13,0.23
92,-1017.619,85.018,-1021.269,97.747,-581.037,-21.601,141.8,-25.6,170.5,-20.0,-16.1,0.0,68767.0,-32767.0,32767.0,32767.0,9.466000000000001,2.358,-0.008,0.25
93,-1031.058,66.492,-1066.022,104.508,-597.595,-25.726,144.4,-23.0,174.8,-20.0,-18.1,0.0,68767.0,-32767.0,32767.0,32767.0,9.67,2.586,0.267,0.28400000000000003
94,-1046.275,39.357,-1102.847,103.19,-608.195,-28.361,146.8,-20.3,178.9,-20.0,-19.9,0.0,68767.0,-32767.0,32767.0,32767.0,9.822000000000001,2.769,0.37,0.309
95,-1060.817,11.861,-1142.069,98.893,-617.247,-28.304,149.0,-18.0,-177.1,-20.0,-20.0,0.0,68767.0,-32767.0,32767.0,32767.0,9.966000000000001,2.961,0.489,0.338
96,-1073.975,-2.748,985.218,90.928,-622.461,-29.049,0.0,0.0,0.0,-20.0,-20.0,0.0,68767.0,-32767.0,32767.0,-32767.0,10.118,3.174,0.725,0.38
97,-180.0,-110.806,-29.769,70.359,-616.273,-6.245,0.6,-6.1,0.0,0.3,2.2,0.0,61648.8,-32767.0,32767.0,6823.0,0.022,-0.001,0.0,0.0
98,-62.005,59.498,-29.744,22.403,-576.911,16.845,0.9,-11.8,0.3,0.3,2.4,0.0,68767.0,-32767.0,32767.0,9045.0,0.026000000000000002,0.0,0.029,-2.106
99,-63.171,94.839,-30.585,-22.632,-523.282,33.518,0.7,-17.5,0.7,0.4,2.8,0.0,68767.0,-32767.0,32767.0,11317.0,0.043000000000000003,0.0,0.053,-1.46
100,-62.306,131.841,-33.653,-68.812,-471.831,46.811,0.2,-22.2,1.2,0.2,4.8,0.0,68767.0,-32767.0,32767.0,13162.0,0.122,-0.003,0.061,0.9520000000000001
101,-60.138,172.454,-37.443,-106.456,-405.425,54.775,-0.6,-26.2,1.8,0.1,5.7,0.0,50648.1,-32767.0,32767.0,14323.0,0.16,-0.004,0.076,0.9520000000000001
102,-55.486,203.352,-39.646,-140.89,-338.217,57.869,-1.8,-28.9,2.4,0.1,7.1,0.0,50063.9,-32767.0,32767.0,15097.0,0.213,-0.002,0.20500000000000002,1.165
103,-48.468,228.636,-43.066,-176.013,-278.687,60.046,-3.3,-31.7,2.9,0.1,8.4,0.0,35941.1,-32767.0,32767.0,15694.0,0.268,0.002,0.215,1.167
104,-39.363,254.679,-48.714,-235.142,-214.63,54.546,-5.5,-33.8,3.3,0.1,9.8,0.0,35328.5,-32767.0,32767.0,15209.0,0.324,0.008,0.215,1.169
105,-26.075,277.167,-47.172,-295.302,-134.702,41.941,-8.3,-39.9,3.5,0.3,10.9,0.0,34941.6,-32767.0,32767.0,13919.0,0.366,0.021,-0.352,0.936
106,-8.31,321.577,-46.075,-309.283,-57.238,26.127,-11.2,-40.5,3.8,0.5,12.4,0.0,60715.7,-32767.0,32767.0,12557.0,0.426,0.037,-0.375,0.933
107,10.912,335.847,-57.549,-322.403,16.157,35.294,-14.1,-40.3,4.1,0.8,14.0,0.0,61399.8,-32767.0,32767.0,14021.0,0.486,0.054,-0.401,0.929
108,30.544,345.621,-51.258,-205.176,139.0,-388.924,-16.3,-41.5,-1.7,1.1,15.0,0.0,62159.0,-32767.0,32767.0,-32767.0,0.527,0.07200000000000001,-0.446,0.925
109,46.155,360.786,-98.236,1695.21,-1647.827,-1126.435,-19.3,-57.5,-26.2,0.6,11.4,0.0,63427.2,-32767.0,32767.0,-32767.0,0.387,-0.007,-0.983,0.865
110,66.61,433.552,129.76,858.749,1780.409,-755.789,-46.5,-71.1,-64.7,1.8,5.7,0.0,68767.0,32767.0,32767.0,-32767.0,0.166,-0.05,-1.256,0.853
111,232.88,485.721,350.237,445.131,1754.454,-446.735,-106.4,-71.4,-131.9,-2.3,-1.2,0.0,68767.0,-32767.0,32767.0,-32767.0,-0.171,-0.009000000000000001,-1.494,0.838
112,570.24,448.423,749.671,579.661,1754.11,-470.513,-133.1,-56.6,-166.9,-3.8,3.4,0.0,68767.0,-32767.0,32767.0,-32767.0,-0.273,-0.015,-1.6520000000000001,0.8230000000000001
113,724.344,389.611,973.29,-1076.817,-1658.14,-336.154,-152.6,-41.4,-179.2,0.3,5.6,0.0,68767.0,32767.0,32767.0,-32767.0,-0.28500000000000003,-0.077,-1.824,0.808
114,870.532,313.049,1293.351,-1691.601,-1440.817,-236.746,-172.4,-25.2,176.6,-2.7,10.0,0.0,68767.0,32767.0,32767.0,-32767.0,-0.47100000000000003,0.08700000000000001,-1.7750000000000001,0.793
115,976.054,243.523,-827.672,-1494.331,-1464.48,399.237,170.8,-9.4,171.7,-3.7,9.5,0.0,68767.0,32767.0,32767.0,32767.0,-0.44,0.157,-1.849,0.779
116,-1088.938,146.744,-827.534,-1284.228,-881.438,520.647,156.8,2.7,167.7,-2.6,10.1,0.0,68767.0,-32767.0,32767.0,32767.0,-0.453,0.146,-1.8760000000000001,0.761
117,-1002.736,77.894,-807.656,-1397.845,-719.807,509.245,142.2,12.8,166.0,-0.7,9.7,0.0,68767.0,-6837.0,32767.0,32767.0,-0.442,0.095,-2.054,0.739
118,-908.618,15.483,-892.781,-1452.162,-454.871,493.89,127.1,19.9,165.0,-0.0,10.2,0.0,68767.0,32767.0,32767.0,32767.0,-0.461,0.084,-2.311,0.712
119,-817.85,-25.079,-925.477,-1505.217,-194.462,458.366,111.7,25.4,164.2,-1.2,12.1,0.0,68767.0,32767.0,32767.0,32767.0,-0.524,0.156,-2.607,0.681
120,-735.81,-46.483,-1003.771,-1549.106,107.2,421.067,97.1,29.3,162.1,-2.8,14.2,0.0,68767.0,32767.0,32767.0,32767.0,-0.584,0.247,-2.886,0.647
121,-659.218,-57.774,-1003.028,-1550.309,351.796,381.303,83.8,33.2,158.0,-3.0,16.3,0.0,68767.0,32767.0,24202.0,32767.0,-0.649,0.299,-3.087,0.615
122,-581.023,-69.353,-989.209,-1499.774,573.531,361.594,72.7,38.1,151.4,-2.6,18.2,0.0,68767.0,32767.0,-32767.0,32767.0,-0.7010000000000001,0.355,-3.238,0.587
123,-512.171,-87.648,-920.07,-1416.466,855.999,359.474,54.5,52.2,152.9,-2.6,19.7,0.0,68767.0,32767.0,-32767.0,32767.0,-0.71,0.452,-3.325,0.561
124,-402.264,-163.645,-2831.456,-1332.299,1123.169,338.733,51.6,61.6,140.4,-9.6,20.0,0.0,68767.0,32767.0,-32767.0,32767.0,-1.194,0.9,-5.172,0.28400000000000003
125,-427.169,-219.292,-883.736,-1231.401,1255.637,325.555,38.9,82.8,134.4,9.0,20.0,0.0,68767.0,32767.0,-32767.0,32767.0,-1.346,0.903,-5.3340000000000005,0.232
126,-239.349,-348.09,-3692.618,-1081.114,1426.149,312.434,141.7,80.3,23.4,19.4,-20.0,0.0,68767.0,32767.0,-32767.0,32767.0,-1.2610000000000001,1.028,-5.896,0.167
127,-793.431,-575.568,-5390.224,-929.051,1559.706,308.939,145.9,61.5,19.9,15.4,-20.0,0.0,68767.0,-32767.0,-32767.0,32767.0,-1.487,0.871,-5.827,0.126
128,-842.838,-465.421,-5559.49,-782.603,1654.645,274.733,154.0,39.0,10.5,20.0,-20.0,0.0,68767.0,-32767.0,-32767.0,32767.0,-2.22,0.9500000000000001,-5.0600000000000005,0.137
129,-864.261,-333.055,-1718.592,150.86,1001.358,344.577,161.2,18.8,-4.1,20.0,-20.0,0.0,68767.0,-32767.0,32767.0,32767.0,-2.94,1.201,-4.389,0.152
130,-907.469,-213.012,1090.577,1431.764,-329.795,591.808,176.2,10.3,-13.4,18.1,-20.0,0.0,68767.0,-32767.0,32767.0,32767.0,-4.022,0.979,-3.423,0.157
131,-1008.626,-163.081,744.809,1413.659,-631.113,542.935,-171.9,6.9,-19.1,9.0,-20.0,0.0,68767.0,-32767.0,32767.0,32767.0,-4.73,0.687,-2.693,0.156
132,1028.497,-143.647,-3.426,1354.358,-888.944,527.465,-161.2,9.4,-25.7,-1.8,-20.0,0.0,68767.0,-32767.0,32767.0,32767.0,-5.324,0.356,-2.035,0.159
133,904.625,-159.925,-61.068,447.423,-528.153,335.753,179.9,9.0,-25.3,-7.7,-20.0,0.0,68767.0,32767.0,-32767.0,15185.0,-5.729,0.159,-1.552,0.163
134,-1175.166,-158.604,-849.281,-1372.291,705.196,167.074,166.7,2.6,-27.6,9.3,-20.0,0.0,68767.0,14732.0,-32767.0,7325.0,-6.0120000000000005,1.2550000000000001,1.985,0.28400000000000003
135,-998.803,-120.419,123.5,-1433.54,733.615,133.728,148.3,-9.2,-30.0,7.5,-20.0,0.0,42781.6,-32767.0,32767.0,6207.0,-6.139,1.215,2.111,0.304
136,-903.921,-50.399,-55.872,275.249,-613.867,224.714,148.7,-4.9,-30.0,8.2,-20.0,0.0,39794.6,-32767.0,32767.0,20126.0,-5.849,1.2630000000000001,3.067,0.373
137,-902.99,-76.893,190.608,575.364,-674.887,240.986,154.3,1.7,-29.0,8.6,-20.0,0.0,20000.0,-32767.0,32767.0,13568.0,-5.771,1.34,3.212,0.40800000000000003
138,-934.353,-116.904,138.972,597.137,-620.17,204.832,159.7,8.5,-28.4,8.6,-20.0,0.0,20000.0,-32767.0,32767.0,18921.0,-5.783,1.3840000000000001,3.303,0.444
139,-966.686,-158.397,113.265,497.843,-381.074,190.623,163.1,11.4,-29.0,8.9,-20.0,0.0,20000.0,-32767.0,-32767.0,5336.0,-5.7700000000000005,1.438,3.398,0.494
140,-985.64,-176.706,139.553,-50.478,227.579,83.022,163.0,9.4,-30.3,8.6,-20.0,0.0,20000.0,-32767.0,-25843.0,-6231.0,-5.721,1.484,3.467,0.541
141,-986.885,-165.538,141.322,-81.016,278.228,94.481,159.7,4.1,-32.2,7.9,-20.0,0.0,20000.0,-32767.0,-9932.0,-3191.0,-5.727,1.506,3.419,0.5750000000000001
142,-971.124,-134.874,153.224,-167.647,308.538,82.391,157.6,0.7,-34.4,6.9,-20.0,0.0,20000.0,-32767.0,-21687.0,-6224.0,-5.47,1.61,3.8320000000000003,0.67
143,-964.181,-115.114,166.955,-234.855,328.076,68.583,154.7,-2.3,-36.6,5.7,-20.0,0.0,20000.0,-32767.0,-32767.0,-5777.0,-5.446,1.62,3.787,0.721
144,-953.692,-97.289,181.756,-193.832,453.84,105.424,153.6,-7.6,-40.3,4.6,-20.0,0.0,20000.0,-32767.0,-32767.0,1081.0,-5.428,1.619,3.747,0.768
145,-954.359,-68.931,824.691,354.031,497.385,98.893,155.1,-6.8,-41.7,2.5,-20.0,0.0,20000.0,-32767.0,32767.0,3274.0,-5.426,1.606,3.724,0.81
146,-975.47,-71.429,452.085,-100.726,-103.476,191.941,153.3,-5.6,-43.3,1.8,-20.0,0.0,20000.0,-32767.0,32767.0,5879.0,-5.284,1.711,3.967,0.851
147,-968.829,-78.634,506.988,-204.947,-18.277,172.747,150.9,-5.2,-45.2,0.9,-20.0,0.0,20000.0,-32767.0,5365.0,770.0,-5.167,1.743,4.111,0.902
148,-960.034,-81.466,561.234,-187.013,98.606,185.524,149.1,-5.9,-47.7,-0.1,-20.0,0.0,20000.0,-32767.0,-32767.0,-1145.0,-5.141,1.739,4.058,0.9500000000000001
149,-955.07,-78.172,681.728,81.475,131.608,124.103,150.4,-5.7,-49.1,-1.5,-20.0,0.0,20000.0,-32767.0,32767.0,-6593.0,-5.132,1.721,3.983,0.995
150,-971.281,-79.613,498.032,301.949,-76.032,116.941,152.9,-4.8,-49.7,-2.2,-20.0,0.0,20000.0,-32767.0,32767.0,-13285.0,-5.0920000000000005,1.739,3.946,1.041
151,-990.348,-85.134,377.395,72.365,38.445,102.903,152.5,-4.6,-50.7,-2.6,-20.0,0.0,20000.0,-32767.0,1116.0,-13728.0,-5.074,1.725,3.872,1.085
152,-990.51,-87.03,442.215,279.317,-61.708,-0.458,154.5,-5.0,-50.6,-3.1,-20.0,0.0,20000.0,-32767.0,10376.0,-31000.0,-4.993,1.7710000000000001,3.955,1.124
153,-1005.489,-85.28,239.075,26.814,32.2,-39.362,154.4,-5.6,-50.5,-3.0,-20.0,0.0,20000.0,-32767.0,32767.0,-30200.0,-4.875,1.808,4.098,1.172
154,-1004.42,-81.913,257.187,-76.49,21.142,4.526,153.1,-5.8,-50.5,-3.0,-20.0,0.0,20000.0,-32767.0,32767.0,-29392.0,-4.846,1.801,4.041,1.219
155,-996.635,-81.148,271.823,-174.867,10.141,0.286,151.8,-5.9,-50.6,-3.0,-20.0,0.0,20000.0,-32767.0,32767.0,-25341.0,-4.833,1.808,3.952,1.2650000000000001
156,-989.024,-81.248,291.493,266.082,5.386,29.966,151.6,-4.9,-50.4,-3.1,-20.0,0.0,20000.0,-32767.0,32767.0,-23586.0,-4.815,1.786,3.896,1.305
157,-988.188,-87.431,221.339,-132.181,23.262,50.42,150.5,-5.4,-51.2,-2.9,-20.0,0.0,20000.0,-32767.0,-32767.0,-22439.0,-4.663,1.86,4.0920000000000005,1.352
158,-980.531,-84.972,413.596,-92.017,125.879,47.727,149.6,-5.8,-52.1,-3.3,-20.0,0.0,20000.0,-32767.0,32767.0,-17984.0,-4.604,1.883,4.11,1.3960000000000001
159,-977.431,-82.854,445.592,60.103,-165.699,70.302,150.7,-4.3,-51.9,-3.9,-20.0,0.0,20000.0,-32767.0,32767.0,-23848.0,-4.625,1.865,3.973,1.437
160,-987.381,-92.389,240.97,259.206,40.107,76.433,152.2,-5.0,-53.0,-3.7,-20.0,0.0,20000.0,-32767.0,-32767.0,-21504.0,-4.61,1.853,3.899,1.48
161,-995.419,-88.731,476.637,-141.75,14.897,38.102,151.6,-4.4,-53.3,-4.3,-20.0,0.0,20000.0,-32767.0,32767.0,-23467.0,-4.554,1.877,3.883,1.526
162,-995.559,-92.452,339.251,38.445,-38.847,37.93,151.5,-4.2,-53.4,-4.5,-20.0,0.0,20000.0,-32767.0,32767.0,-26422.0,-4.481,1.9020000000000001,3.9250000000000003,1.569
163,-995.767,-94.46,321.185,-77.235,67.724,2.464,151.3,-4.8,-53.9,-4.6,-20.0,0.0,20000.0,-32767.0,32767.0,-27334.0,-4.452,1.9180000000000001,3.887,1.608
164,-995.102,-91.228,371.28,136.249,-95.627,57.353,151.5,-4.6,-54.4,-4.8,-20.0,0.0,20000.0,-32767.0,-32767.0,-25207.0,-4.44,1.879,3.802,1.651
165,-997.72,-92.996,377.416,-19.423,-19.309,52.368,151.6,-4.0,-54.5,-5.1,-20.0,0.0,20000.0,-32767.0,32767.0,-27801.0,-4.391,1.891,3.7800000000000002,1.695
166,-999.868,-97.211,317.115,53.514,31.226,45.206,151.4,-4.0,-55.2,-5.1,-20.0,0.0,20000.0,-32767.0,32767.0,-21650.0,-4.355,1.895,3.748,1.735
167,-998.978,-97.373,425.926,-69.614,35.81,102.044,151.7,-3.6,-56.1,-5.5,-20.0,0.0,20000.0,-32767.0,32767.0,-21151.0,-4.348,1.8880000000000001,3.6470000000000002,1.7770000000000001
168,-1002.866,-100.538,467.348,-15.183,-2.063,117.113,150.6,-3.0,-57.0,-6.0,-20.0,0.0,20000.0,-32767.0,32767.0,-20004.0,-4.337,1.889,3.5660000000000003,1.815
169,-999.655,-104.334,475.632,-17.533,44.805,100.841,150.9,-2.8,-58.1,-6.5,-20.0,0.0,20000.0,-32767.0,32767.0,-19772.0,-4.32,1.8840000000000001,3.503,1.852
170,-1004.087,-105.909,507.75,93.22,9.053,105.768,151.1,-2.5,-59.0,-7.0,-20.0,0.0,20000.0,-32767.0,32767.0,-23318.0,-4.297,1.885,3.435,1.891
171,-1008.5,-108.469,495.322,8.938,15.069,88.064,151.0,-2.1,-59.7,-7.5,-20.0,0.0,20000.0,-32767.0,32767.0,-22643.0,-4.273,1.8880000000000001,3.378,1.928
172,-1011.527,-108.889,328.562,-117.628,-21.486,96.142,150.2,-1.7,-60.6,-8.4,-20.0,0.0,20000.0,-32767.0,31540.0,-23114.0,-4.205,1.9160000000000001,3.4010000000000002,1.966
173,-1011.42,-114.253,492.391,41.482,7.735,111.555,150.7,-1.4,-61.7,-8.9,-20.0,0.0,20000.0,-32767.0,12735.0,-26166.0,-4.113,1.943,3.481,2.0020000000000002
174,-1018.077,-116.824,524.746,70.474,27.559,107.487,150.8,-0.7,-62.5,-9.4,-20.0,0.0,20000.0,-32767.0,32767.0,-22413.0,-4.066,1.951,3.468,2.04
175,-1020.972,-121.694,503.684,70.989,55.119,127.655,150.6,-0.1,-63.4,-9.8,-20.0,0.0,20000.0,-32767.0,32767.0,-25448.0,-4.0440000000000005,1.952,3.41,2.076
176,-1022.893,-125.974,512.859,-53.915,-19.079,101.07,150.4,0.2,-64.5,-10.4,-20.0,0.0,20000.0,-32767.0,26658.0,-26294.0,-4.015,1.954,3.354,2.115
177,-1024.86,-128.206,544.997,13.35,51.452,104.106,150.7,0.6,-65.7,-11.0,-20.0,0.0,20000.0,-32767.0,32767.0,-23715.0,-4.006,1.946,3.267,2.15
178,-1030.406,-130.134,585.642,18.22,-149.657,144.672,151.1,1.2,-66.7,-11.5,-20.0,0.0,20000.0,-32767.0,-32767.0,-27246.0,-4.021,1.954,3.14,2.182
179,-1035.606,-136.027,558.572,-61.02,-2.578,65.145,150.0,2.3,-66.6,-11.5,-20.0,0.0,20000.0,-32767.0,32767.0,-32767.0,-3.975,1.943,3.119,2.219
180,-1028.699,-142.496,363.818,44.232,9.397,78.094,150.4,2.5,-67.4,-11.9,-20.0,0.0,20000.0,-32767.0,-10978.0,-32767.0,-3.9410000000000003,1.958,3.088,2.25
181,-1033.927,-144.292,527.081,23.262,41.31,81.475,150.3,1.6,-68.8,-12.5,-20.0,0.0,20000.0,-32767.0,32767.0,-31436.0,-3.968,1.944,2.9370000000000003,2.2800000000000002
182,-1037.284,-139.253,622.51,28.934,88.637,123.759,150.8,2.2,-70.2,-13.3,-20.0,0.0,20000.0,-32767.0,32767.0,-24503.0,-3.981,1.7710000000000001,2.73,2.339
183,-1044.146,-143.507,657.893,-68.526,-136.192,168.163,150.8,2.9,-71.3,-13.8,-20.0,0.0,20000.0,-32767.0,21374.0,-29454.0,-3.988,1.7790000000000001,2.616,2.367
184,-1047.554,-148.884,592.974,86.345,115.107,110.753,151.5,2.8,-72.9,-14.5,-20.0,0.0,20000.0,-32767.0,32767.0,-28659.0,-3.928,1.784,2.632,2.395
185,-1056.413,-148.423,701.191,-2.865,72.536,143.469,151.2,3.2,-74.3,-15.2,-20.0,0.0,20000.0,-32767.0,-17296.0,-30740.0,-3.9370000000000003,1.79,2.528,2.418
186,-1058.744,-151.998,689.161,-104.45,-146.219,154.183,151.7,4.9,-74.9,-15.5,-20.0,0.0,20000.0,-32767.0,32767.0,-31391.0,-3.944,1.815,2.4090000000000003,2.444
187,-1058.744,-152.556,430.454,239.382,-40.909,90.413,150.5,6.0,-74.8,-15.5,-20.0,0.0,20000.0,-32767.0,32767.0,-32767.0,-3.918,1.809,2.37,2.467
188,-1055.955,-170.016,435.955,-72.193,104.508,64.802,149.9,5.3,-76.0,-16.0,-20.0,0.0,20000.0,-32767.0,-32767.0,-32767.0,-3.8320000000000003,1.824,2.43,2.496
189,-1052.284,-166.962,642.459,-98.434,103.476,73.224,148.8,5.1,-77.1,-16.5,-20.0,0.0,20000.0,-32767.0,32767.0,-32767.0,-3.809,1.824,2.375,2.5220000000000002
190,-1049.08,-165.943,652.282,-4.125,38.675,86.574,151.1,5.9,-77.6,-16.7,-20.0,0.0,20000.0,-32767.0,32767.0,-32767.0,-3.815,1.819,2.2680000000000002,2.5460000000000003
191,-1067.156,-172.022,453.249,347.671,-150.459,80.902,152.2,6.8,-78.0,-16.9,-20.0,0.0,20000.0,-32767.0,-32767.0,-32767.0,-3.8160000000000003,1.818,2.1750000000000003,2.567
192,-1074.947,-177.694,455.659,-273.014,122.269,91.96,151.2,6.0,-79.4,-17.6,-20.0,0.0,20000.0,-32767.0,-26203.0,-32767.0,-3.759,1.825,2.161,2.598
193,-1072.653,-173.819,466.583,167.361,1.146,75.344,151.7,7.6,-79.5,-17.6,-20.0,0.0,20000.0,-32767.0,32767.0,-32767.0,-3.735,1.837,2.137,2.614
194,-1076.084,-184.534,465.164,2.177,-226.777,116.139,152.2,8.9,-80.0,-17.8,-20.0,0.0,20000.0,-32767.0,-20046.0,-32767.0,-3.68,1.866,2.132,2.6390000000000002
195,-1078.701,-193.67,560.354,66.119,132.697,121.352,152.3,8.2,-81.8,-18.6,-20.0,0.0,20000.0,-32767.0,-8799.0,-32767.0,-3.6550000000000002,1.849,2.077,2.6630000000000003
196,-1080.886,-189.409,795.049,-216.292,44.118,134.702,151.7,8.6,-83.1,-19.2,-20.0,0.0,20000.0,-32767.0,7595.0,-32767.0,-3.6390000000000002,1.848,1.991,2.69
197,-1081.741,-192.849,729.913,182.716,-136.307,126.566,152.6,10.1,-83.6,-19.4,-20.0,0.0,20000.0,-32767.0,32767.0,-32767.0,-3.633,1.862,1.926,2.705
198,-1090.823,-202.335,584.8,-117.628,46.696,88.866,151.7,10.0,-84.9,-20.0,-20.0,0.0,20000.0,-32767.0,22220.0,-32767.0,-3.563,1.8860000000000001,1.946,2.731
199,-1086.59,-202.726,730.454,-88.579,104.966,168.621,151.6,9.8,-87.0,-20.0,-20.0,0.0,20000.0,-32767.0,-32767.0,-32767.0,-3.535,1.875,1.8980000000000001,2.753
200,-1089.719,-202.755,884.303,154.24,-60.905,185.925,153.4,11.7,-88.2,-20.0,-20.0,0.0,20000.0,-32767.0,32767.0,-32767.0,-3.561,1.874,1.7690000000000001,2.767
201,-1100.302,-214.99,726.099,4.068,-36.841,191.998,152.7,11.9,-90.3,-20.0,-20.0,0.0,20000.0,-32767.0,-32767.0,-32767.0,-3.5660000000000003,1.856,1.657,2.787
202,-1096.04,-216.853,900.502,-57.468,55.004,180.768,153.0,12.6,-91.9,-20.0,-20.0,0.0,20000.0,-32767.0,32767.0,-32767.0,-3.52,1.877,1.645,2.806
203,-1097.898,-222.036,827.583,81.36,-105.825,166.158,153.8,14.2,-93.0,-20.0,-20.0,0.0,20000.0,-32767.0,32767.0,-32767.0,-3.492,1.889,1.605,2.822
204,-1102.932,-232.927,757.193,-68.468,158.595,184.263,154.0,14.0,-95.5,-20.0,-19.8,0.0,20000.0,-32767.0,-32767.0,-32767.0,-3.497,1.86,1.498,2.839
205,-1103.855,-232.515,1000.841,103.018,-177.044,237.262,155.0,16.2,-96.9,-20.0,-19.2,0.0,20000.0,-32767.0,32767.0,-32767.0,-3.471,1.899,1.441,2.857
206,-1109.78,-245.856,842.527,-16.673,46.123,238.981,155.4,16.8,-99.5,-20.0,-18.0,0.0,20000.0,-32767.0,-17653.0,-32767.0,-3.4410000000000003,1.897,1.412,2.87
207,-1112.444,-246.372,1054.266,-86.689,57.754,283.614,155.4,17.4,-102.5,-20.0,-16.7,0.0,20000.0,-32767.0,-32767.0,-32767.0,-3.4450000000000003,1.887,1.322,2.8810000000000002
208,-1112.291,-244.183,1129.814,144.672,75.688,267.457,157.9,18.8,-105.0,-20.0,-15.6,0.0,20000.0,-32767.0,32767.0,-32767.0,-3.468,1.887,1.198,2.891
209,-1127.5,-245.972,1067.894,-231.36,-408.347,197.67,156.9,21.4,-106.0,-20.0,-15.1,0.0,20000.0,-32767.0,-32767.0,-32767.0,-3.4010000000000002,1.951,1.199,2.914
210,-1121.224,-255.634,825.189,62.166,113.388,222.308,158.2,21.4,-108.7,-20.0,-13.8,0.0,20000.0,-32767.0,20198.0,-32767.0,-3.31,1.97,1.289,2.9250000000000003
211,-1128.99,-253.998,1117.399,-16.501,58.957,239.783,158.9,21.9,-111.4,-20.0,-12.5,0.0,20000.0,-32767.0,-5241.0,-32767.0,-3.299,1.965,1.205,2.94
212,-1133.449,-250.135,1148.658,-62.853,4.756,259.263,159.2,22.8,-114.1,-20.0,-11.1,0.0,20000.0,-32767.0,32767.0,-32767.0,-3.3240000000000003,1.94,1.063,2.953
213,-1134.919,-248.539,690.924,39.248,141.578,309.913,161.9,23.0,-117.9,-20.0,-9.1,0.0,20000.0,-32767.0,-32767.0,-32767.0,-3.383,1.917,0.86,2.965
214,-1151.19,-242.668,715.953,-95.741,-269.004,291.177,162.7,23.8,-120.2,-20.0,-7.9,0.0,20000.0,-32767.0,-32767.0,-32767.0,-3.365,1.947,0.783,2.979
215,-1156.046,-236.487,728.614,75.287,238.809,158.709,164.1,22.3,-122.7,-20.0,-6.6,0.0,20000.0,-32767.0,-6102.0,-32767.0,-3.2560000000000002,1.958,0.922,2.983
216,-1164.857,-221.409,1185.394,-38.159,122.613,210.619,164.3,22.8,-124.8,-20.0,-5.5,0.0,20000.0,-32767.0,26068.0,-32767.0,-3.231,1.962,0.879,2.991
217,-1165.836,-217.296,1123.133,-24.523,-195.837,190.566,164.5,25.9,-126.2,-20.0,-4.8,0.0,20000.0,-32767.0,32767.0,-32767.0,-3.211,1.965,0.796,3.008
218,-1166.891,-230.142,764.92,4.641,-238.637,206.609,165.9,26.0,-128.2,-20.0,-3.7,0.0,20000.0,-32767.0,-32767.0,-32767.0,-3.182,1.984,0.712,3.0300000000000002
219,-1175.153,-227.011,1137.106,-147.365,24.236,111.326,165.8,26.0,-129.5,-20.0,-3.7,0.0,20000.0,-32767.0,32767.0,-32767.0,-3.129,1.968,0.704,3.0420000000000003
220,-1175.153,-221.21,784.993,95.397,40.737,121.123,167.0,26.7,-130.8,-20.0,-3.0,0.0,20000.0,-32767.0,32767.0,-32767.0,-3.044,2.0,0.77,3.047
221,-1174.852,-218.557,794.92,-20.054,-86.459,145.76,166.9,27.3,-132.3,-20.0,-2.3,0.0,20000.0,-32767.0,-32767.0,-32767.0,-3.027,2.013,0.6950000000000001,3.057
222,-1181.932,-218.888,800.898,44.805,43.659,151.777,168.2,27.4,-133.9,-20.0,-1.5,0.0,20000.0,-32767.0,-5535.0,-32767.0,-3.0260000000000002,2.0060000000000002,0.601,3.065
223,-1180.594,-218.382,803.131,-42.112,-5.099,116.253,168.3,27.7,-135.3,-20.0,-0.6,0.0,20000.0,-32767.0,32767.0,-32767.0,-2.964,2.004,0.592,3.08
224,-1189.0,-214.866,824.652,63.083,75.287,149.828,169.3,27.6,-136.8,-20.0,0.1,0.0,20000.0,-32767.0,-32767.0,-32767.0,-2.947,2.012,0.525,3.086
225,-1189.541,-212.997,829.315,-50.306,-47.727,118.373,169.9,28.3,-138.2,-20.0,1.0,0.0,20000.0,-32767.0,32767.0,-32767.0,-2.934,2.0060000000000002,0.439,3.095
226,-1195.928,-208.253,846.418,80.386,3.953,141.234,170.0,28.1,-139.8,-20.0,1.8,0.0,20000.0,-32767.0,-32767.0,-32767.0,-2.9370000000000003,2.0060000000000002,0.34700000000000003,3.096
227,-1200.819,-207.354,1138.468,-0.344,-52.483,115.165,171.5,29.2,-141.0,-20.0,2.6,0.0,20000.0,-32767.0,32767.0,-32767.0,-2.8970000000000002,2.0100000000000002,0.309,3.104
228,-1209.108,-209.484,1089.66,-6.303,5.042,123.014,170.9,28.5,-142.8,-20.0,3.3,0.0,20000.0,-32767.0,-32767.0,-32767.0,-2.906,2.0100000000000002,0.186,3.109
229,-1205.663,-201.984,1199.592,-99.981,8.652,175.898,173.3,29.1,-145.0,-20.0,4.2,0.0,20000.0,-32767.0,-18252.0,-32767.0,-2.9130000000000003,1.986,0.076,3.112
230,-1220.054,-200.927,1286.077,108.805,-55.634,201.108,173.7,29.4,-147.1,-20.0,5.4,0.0,20000.0,-32767.0,32767.0,-32767.0,-2.876,2.041,0.047,3.111
231,-1221.981,-196.151,1280.767,-47.842,146.677,192.055,174.9,29.0,-149.6,-20.0,6.5,0.0,20000.0,-32767.0,-32767.0,-32767.0,-2.83,2.037,0.045,3.11
232,-1229.146,-187.694,1372.712,40.451,-134.588,245.341,176.4,30.4,-152.4,-20.0,7.9,0.0,20000.0,-32767.0,32767.0,-32767.0,-2.822,2.049,-0.051000000000000004,3.114
233,-1238.696,-188.594,1424.075,-6.303,90.298,238.064,177.4,29.3,-155.1,-20.0,9.3,0.0,20000.0,-32767.0,-32767.0,-32767.0,-2.7960000000000003,2.063,-0.097,3.114
234,-1244.216,-174.036,1442.017,-23.205,-78.782,231.532,178.7,30.1,-157.6,-20.0,10.7,0.0,20000.0,-32767.0,3210.0,-32767.0,-2.729,2.068,-0.07100000000000001,3.114
235,-1252.375,-171.158,1429.788,22.059,-14.668,236.574,-179.9,29.1,-160.4,-20.0,12.0,0.0,20000.0,-32767.0,10204.0,-32767.0,-2.724,2.07,-0.156,3.113
236,900.378,-158.051,1478.083,51.337,138.656,259.894,-177.7,29.4,-163.5,-20.0,13.3,0.0,20000.0,-32767.0,32767.0,-32767.0,-2.774,1.968,-0.294,3.101
237,892.06,-152.136,1574.444,-42.685,-37.3,293.469,-176.9,29.0,-166.5,-20.0,14.9,0.0,20000.0,-32767.0,-16649.0,-32767.0,-2.737,1.985,-0.34400000000000003,3.105
238,891.687,-141.322,1552.513,-4.526,49.733,224.256,-175.8,28.7,-168.9,-20.0,16.2,0.0,20000.0,-32767.0,-25071.0,-32767.0,-2.712,1.948,-0.385,3.102
239,889.947,-131.362,1483.133,-16.215,-31.914,200.363,-175.0,28.8,-170.8,-20.0,17.3,0.0,20000.0,-32767.0,-4947.0,-32767.0,-2.718,1.951,-0.503,3.1
240,890.118,-125.515,1397.038,19.882,33.862,136.593,-174.3,28.4,-172.3,-20.0,18.2,0.0,20000.0,-32767.0,13135.0,-32767.0,-2.708,1.955,-0.579,3.095
241,893.84,-120.772,1071.112,2.807,-8.193,149.542,-173.3,28.3,-174.0,-20.0,18.8,0.0,20000.0,-32767.0,-16540.0,-32767.0,-2.657,1.956,-0.603,3.096
242,893.73,-114.997,1082.003,18.85,5.329,169.71,-172.9,28.2,-175.6,-20.0,19.6,0.0,20000.0,-32767.0,-11459.0,-32767.0,-2.571,1.986,-0.535,3.091
243,894.751,-109.636,1057.268,-8.308,-12.834,138.197,-172.1,28.1,-177.4,-20.0,20.0,0.0,20000.0,-32767.0,32767.0,-32767.0,-2.469,1.949,-0.49,3.103
244,894.781,-106.648,1098.967,-29.908,-42.17,169.08,-171.5,27.7,-179.0,-20.0,20.0,0.0,20000.0,-32767.0,-32767.0,-32767.0,-2.441,1.947,-0.521,3.096
245,890.559,-104.237,1417.042,22.231,80.214,128.171,-170.8,27.5,179.8,-20.0,20.0,0.0,20000.0,-32767.0,17615.0,-32767.0,-2.432,1.949,-0.608,3.092
246,894.288,-104.51,1128.987,-26.7,-101.757,105.711,-170.4,27.1,178.8,-20.0,20.0,0.0,20000.0,-32767.0,-32767.0,32767.0,-2.444,1.9160000000000001,-0.745,3.09
247,893.187,-101.591,-834.829,-64.859,-31.799,101.242,-170.2,27.4,177.9,-20.0,20.0,0.0,20000.0,-32767.0,28502.0,32767.0,-2.379,1.921,-0.72,3.084
248,896.415,-103.504,-859.354,48.472,-25.611,12.777,-170.1,27.2,177.9,-20.0,20.0,0.0,20000.0,-32767.0,-20370.0,32767.0,-2.328,1.949,-0.731,3.079
249,900.647,-102.459,-1019.876,-70.76,74.542,-4.469,-169.7,27.9,177.8,-20.0,20.0,0.0,20000.0,-32767.0,32767.0,32767.0,-2.305,1.9140000000000001,-0.764,3.069
250,902.652,-106.925,-999.972,76.433,-42.972,0.229,-170.2,27.7,178.2,-20.0,20.0,0.0,20000.0,-32767.0,-32767.0,32767.0,-2.243,1.954,-0.755,3.063
251,910.005,-106.121,-1079.219,-95.741,103.304,-21.715,-170.0,27.6,178.2,-20.0,20.0,0.0,20000.0,-32767.0,551.0,32767.0,-2.208,1.967,-0.787,3.055
252,913.375,-105.388,-1032.525,134.072,-3.037,11.746,-169.9,27.8,178.0,-20.0,20.0,0.0,20000.0,-32767.0,14054.0,32767.0,-2.168,2.094,-0.84,3.047
253,917.342,-106.651,-983.623,-0.859,7.85,1.547,-169.6,27.6,177.6,-20.0,20.0,0.0,20838.4,-32767.0,-32767.0,32767.0,-2.097,2.102,-0.8150000000000001,3.043
254,919.971,-105.439,-941.289,-6.704,-14.84,57.009,-169.3,27.5,176.9,-20.0,20.0,0.0,20159.2,-32767.0,-24929.0,32767.0,-2.047,2.107,-0.8230000000000001,3.037
255,922.847,-104.718,-916.407,3.724,-20.455,92.647,-169.0,27.6,176.1,-20.0,20.0,0.0,20316.9,-32767.0,13939.0,32767.0,-2.0180000000000002,2.117,-0.866,3.028
256,925.191,-105.395,-873.183,-4.87,5.5,27.215,-169.0,27.4,176.0,-20.0,20.0,0.0,21358.8,-32767.0,-23233.0,32767.0,-1.949,2.1310000000000002,-0.855,3.025
257,929.906,-104.311,-1003.014,9.74,2.349,16.788,-168.9,27.4,175.9,-20.0,20.0,0.0,21040.9,-32767.0,9880.0,32767.0,-1.915,2.132,-0.891,3.017
258,933.714,-104.655,-1005.269,-8.652,10.714,-7.792,-169.0,27.4,176.2,-20.0,20.0,0.0,21919.0,-32767.0,-24506.0,32767.0,-1.868,2.138,-0.904,3.0100000000000002
259,938.756,-104.404,-1070.56,0.745,-15.241,-30.195,-169.1,27.5,176.4,-20.0,20.0,0.0,22208.4,-32767.0,-10381.0,32767.0,-1.824,2.153,-0.92,3.001
260,944.184,-104.93,-1075.635,6.933,6.131,-16.329,-169.6,27.5,176.7,-20.0,20.0,0.0,22590.6,-32767.0,-9689.0,32767.0,-1.782,2.168,-0.9380000000000001,2.992
261,951.164,-104.854,-1086.932,0.745,-5.615,-3.61,-169.5,27.5,176.8,-20.0,20.0,0.0,23016.8,-32767.0,-9363.0,32767.0,-1.718,2.114,-0.9530000000000001,2.998
262,954.753,-104.854,-1033.877,-0.802,0.115,2.063,-169.6,27.5,176.8,-20.0,20.0,0.0,23376.1,-32767.0,-11090.0,32767.0,-1.675,2.128,-0.972,2.989
263,957.891,-104.935,-1046.754,-3.552,2.464,6.532,-169.7,27.5,176.7,-20.0,20.0,0.0,23828.9,-32767.0,-7888.0,32767.0,-1.6260000000000001,2.123,-0.987,2.983
264,958.105,-104.795,-1043.846,-2.75,3.209,-0.115,-169.7,27.5,176.8,-20.0,20.0,0.0,24173.1,-32767.0,-15856.0,32767.0,-1.582,2.125,-1.0030000000000001,2.975
265,957.933,-104.847,-1039.194,6.303,-6.016,-2.636,-169.8,27.4,176.9,-20.0,20.0,0.0,24566.3,-32767.0,-21678.0,32767.0,-1.54,2.1390000000000002,-1.022,2.965
266,958.728,-104.724,-1054.051,3.839,-1.948,-1.432,-169.9,27.4,176.9,-20.0,20.0,0.0,25023.5,-32767.0,-16871.0,32767.0,-1.492,2.129,-1.039,2.959
267,959.13,-104.604,-1049.276,-0.917,1.948,-0.229,-169.9,27.4,176.9,-20.0,20.0,0.0,25441.1,-32767.0,-9395.0,32767.0,-1.449,2.132,-1.056,2.95
268,959.304,-104.549,-1048.311,-4.985,6.073,1.146,-169.8,27.4,176.9,-20.0,20.0,0.0,25870.7,-32767.0,-12586.0,32767.0,-1.4060000000000001,2.14,-1.075,2.94
269,959.188,-104.541,-1047.281,-1.604,1.375,-0.286,-169.9,27.4,176.9,-20.0,20.0,0.0,26326.2,-32767.0,-18935.0,32767.0,-1.364,2.154,-1.093,2.9290000000000003
270,959.079,-104.553,-1049.069,6.36,-3.667,-1.776,-169.9,27.4,176.9,-20.0,20.0,0.0,26788.7,-32767.0,-25890.0,32767.0,-1.322,2.1670000000000003,-1.111,2.918
271,959.196,-104.548,-1050.921,4.526,-4.756,-0.286,-169.9,27.4,176.9,-20.0,20.0,0.0,27242.4,-32767.0,-20554.0,32767.0,-1.2790000000000001,2.181,-1.129,2.907
272,959.285,-104.485,-1052.764,-1.49,-0.63,-0.115,-169.9,27.4,176.9,-20.0,20.0,0.0,27691.0,-32767.0,-17157.0,32767.0,-1.238,2.195,-1.1480000000000001,2.895
273,959.26,-104.521,-1054.477,-0.516,0.115,0.286,-171.2,27.0,177.8,-20.0,20.0,0.0,28176.8,-32767.0,-16483.0,32767.0,-1.196,2.209,-1.167,2.884
274,967.314,-102.156,-1211.462,-2.636,2.578,-0.115,-171.2,27.1,177.8,-20.0,20.0,0.0,28648.2,-32767.0,-9924.0,32767.0,-1.141,1.9140000000000001,-1.181,2.916
275,967.338,-102.197,-1063.184,-5.787,5.558,-0.516,-171.3,27.0,177.9,-20.0,20.0,0.0,29021.4,-32767.0,-17468.0,32767.0,-1.1,1.926,-1.2,2.904
276,967.855,-102.225,-1075.589,3.151,-2.12,0.573,-171.3,27.0,177.8,-20.0,20.0,0.0,29508.1,-32767.0,-22393.0,32767.0,-1.055,1.921,-1.221,2.895
277,967.884,-102.225,-1065.871,0.516,-0.917,-0.229,-171.3,27.0,177.8,-20.0,20.0,0.0,30040.7,-32767.0,-20748.0,32767.0,-1.0130000000000001,1.933,-1.238,2.883
278,967.892,-102.217,-1068.778,-1.776,-0.344,-0.172,-171.3,27.1,177.8,-20.0,20.0,0.0,30486.0,-32767.0,-19195.0,32767.0,-0.971,1.946,-1.2550000000000001,2.87
279,967.916,-102.301,-1071.065,-2.865,3.495,-0.286,-171.3,27.1,177.9,-20.0,20.0,0.0,30937.4,-32767.0,-21334.0,32767.0,-0.93,1.958,-1.272,2.858
280,967.913,-102.315,-1073.419,-1.203,0.115,-0.859,-172.0,26.9,178.3,-20.0,20.0,0.0,31403.7,-32767.0,-25616.0,32767.0,-0.888,1.97,-1.29,2.845
281,972.15,-101.257,-1154.451,3.323,-3.495,0.917,-172.0,26.9,178.3,-20.0,20.0,0.0,31872.1,-32767.0,-27005.0,32767.0,-0.834,1.823,-1.31,2.852
282,972.243,-101.263,-1077.67,1.604,-2.636,-1.432,-172.1,26.9,178.3,-20.0,20.0,0.0,32413.3,-32767.0,-23326.0,32767.0,-0.792,1.834,-1.328,2.839
283,972.324,-101.205,-1081.26,-1.432,0.401,0.401,-172.3,26.8,178.5,-20.0,20.0,0.0,32880.8,-32767.0,-16013.0,32767.0,-0.751,1.846,-1.344,2.825
284,973.712,-100.635,-1111.004,-3.896,1.948,-0.802,-172.3,26.8,178.5,-20.0,20.0,0.0,33325.2,-32767.0,-17316.0,32767.0,-0.715,1.797,-1.364,2.816
285,973.683,-100.737,-1084.904,-2.979,1.203,0.0,-172.3,26.8,178.5,-20.0,20.0,0.0,33869.6,-32767.0,-25294.0,32767.0,-0.674,1.808,-1.381,2.802
286,973.683,-100.737,-1086.385,1.948,-1.948,-0.057,-172.3,26.8,178.5,-20.0,20.0,0.0,34341.7,-32767.0,-27917.0,32767.0,-0.633,1.819,-1.399,2.7880000000000003
287,973.779,-100.714,-1088.236,0.229,-0.573,-0.344,-172.3,26.8,178.5,-20.0,19.0,0.0,34823.9,-32767.0,-30764.0,32767.0,-0.593,1.83,-1.418,2.774
288,973.672,-106.552,-1089.987,5.271,-3.953,-0.172,-172.3,26.8,178.5,-20.0,18.0,0.0,35355.0,-32767.0,-32767.0,32767.0,-0.552,1.841,-1.436,2.7600000000000002
289,973.783,-112.639,-1091.833,4.87,-5.959,-0.286,-172.3,26.8,178.5,-20.0,17.0,0.0,35856.9,-32767.0,-31231.0,32767.0,-0.511,1.852,-1.454,2.745
290,973.793,-118.687,-1093.577,-0.859,-0.63,-0.401,-172.3,26.8,178.5,-20.0,14.9,0.0,36352.1,-32767.0,-26416.0,32767.0,-0.47000000000000003,1.864,-1.471,2.731
291,973.805,-131.191,-1093.457,-2.349,-0.057,1.261,-172.3,26.8,178.5,-20.0,13.9,0.0,37257.3,-32767.0,-32767.0,32767.0,-0.428,1.875,-1.488,2.716
292,973.764,-137.303,-1097.601,-3.896,2.235,0.516,-174.3,26.0,179.7,-20.0,13.3,0.0,37782.7,-32767.0,-32767.0,32767.0,-0.388,1.8860000000000001,-1.506,2.701
293,985.642,-136.174,-1330.331,1.49,-3.724,0.344,-174.3,26.0,179.8,-20.0,12.3,0.0,38698.4,-32767.0,-32767.0,32767.0,-0.382,1.385,-1.54,2.741
294,985.802,-142.035,-1110.892,1.089,-0.802,-1.146,-174.3,26.0,179.8,-20.0,11.3,0.0,39169.5,-32767.0,-32767.0,32767.0,-0.343,1.391,-1.556,2.725
295,985.828,-147.93,-1109.308,2.693,-5.558,1.146,-174.3,26.0,179.8,-20.0,10.5,0.0,39667.8,-32767.0,-32767.0,32767.0,-0.303,1.4000000000000001,-1.573,2.71
296,986.027,-152.701,-1117.916,-1.261,0.172,-2.063,-174.3,26.0,179.8,-20.0,9.5,0.0,40260.3,-32767.0,-32767.0,32767.0,-0.271,1.3960000000000001,-1.594,2.693
297,986.08,-158.732,-1115.931,0.172,-0.458,1.49,-174.3,26.0,179.8,-20.0,8.5,0.0,40730.2,-32767.0,-32767.0,32767.0,-0.231,1.405,-1.61,2.677
298,986.08,-158.732,-1115.559,-5.329,2.75,-0.573,-174.4,26.0,179.8,-20.0,7.6,0.0,41236.8,-32767.0,-32767.0,32767.0,-0.191,1.413,-1.627,2.661
299,986.06,-164.638,-1117.28,-8.824,7.735,-0.458,-174.3,26.0,179.8,-20.0,6.6,0.0,41842.2,-32767.0,-32767.0,32767.0,-0.153,1.422,-1.6480000000000001,2.645
300,986.11,-170.359,-1119.196,-4.698,4.24,1.776,-174.3,26.0,179.8,-20.0,5.6,0.0,42408.4,-32767.0,-32767.0,32767.0,-0.115,1.43,-1.667,2.628
301,986.062,-176.173,-1120.92,-1.604,3.953,-2.578,-174.8,25.8,-179.9,-20.0,4.9,0.0,42897.3,-32767.0,-32767.0,32767.0,-0.075,1.439,-1.683,2.611
302,988.866,-185.198,1035.396,5.73,-3.495,1.891,-174.8,25.8,-180.0,-20.0,3.9,0.0,43744.2,-32767.0,-32767.0,-32767.0,-0.051000000000000004,1.323,-1.713,2.595
303,988.866,-185.198,1037.847,-4.125,-24.351,28.476,-174.7,25.6,179.9,-20.0,3.7,0.0,44164.8,-32767.0,-32767.0,-32767.0,-0.01,1.332,-1.727,2.578
304,988.172,-191.075,1040.219,-0.286,43.545,42.857,-174.5,25.7,179.6,-20.0,2.8,0.0,44621.8,-32731.0,23943.0,32767.0,-0.001,1.329,-1.741,2.564
305,987.013,-197.186,-1071.387,-17.303,27.903,22.173,-174.6,25.6,179.8,-20.0,2.0,0.0,44959.1,-19313.0,-12255.0,32767.0,0.041,1.338,-1.7510000000000001,2.5460000000000003
306,987.703,-201.378,-1147.365,-19.251,-14.954,-11.803,-174.7,25.5,180.0,-20.0,1.0,0.0,45609.9,-32767.0,-32767.0,32767.0,0.069,1.339,-1.7730000000000001,2.5300000000000002
307,988.279,-207.032,-1162.739,-16.96,-46.696,16.558,-174.7,25.5,179.9,-20.0,-0.1,0.0,46350.0,-32767.0,-32767.0,32767.0,0.106,1.337,-1.798,2.512
308,988.254,-213.282,-1119.211,-8.48,-4.87,37.357,-174.8,25.6,180.0,-20.0,-0.9,0.0,46572.6,-30831.0,500.0,32767.0,0.151,1.346,-1.803,2.494
309,988.512,-219.068,-1134.656,-9.397,35.409,-5.386,-174.7,25.7,179.9,-20.0,-1.9,0.0,47474.1,-31814.0,-16704.0,32767.0,0.182,1.353,-1.834,2.475
310,988.425,-225.612,-1112.732,-9.511,25.382,-22.861,-175.2,25.4,-179.7,-20.0,-2.9,0.0,47930.7,-31579.0,-32767.0,32767.0,0.223,1.361,-1.848,2.457
311,991.203,-229.807,63940.25,-18.048,-27.273,35.122,-175.0,25.5,179.8,-20.0,-3.8,0.0,49117.7,6746.0,-32767.0,-32767.0,0.257,1.254,-1.891,2.439
312,990.032,-235.98,-64041.203,4.469,-16.558,28.19,-175.0,25.3,179.7,-20.0,-4.5,0.0,49360.3,13653.0,-32767.0,32767.0,0.3,1.266,-1.8960000000000001,2.4210000000000003
313,989.902,-239.022,-1105.263,2.406,-30.08,28.934,-175.0,25.4,179.9,-20.0,-5.4,0.0,49967.8,-26155.0,-32767.0,32767.0,0.331,1.264,-1.915,2.404
314,989.974,-238.804,-1133.784,-27.617,-11.459,-12.605,-175.1,25.3,-179.8,-20.0,-6.2,0.0,50408.7,-32767.0,-32767.0,32767.0,0.363,1.266,-1.928,2.387
315,990.253,-244.365,-1135.907,-25.497,22.918,20.913,-175.0,25.3,-179.8,-20.0,-7.0,0.0,50968.5,-14044.0,-27464.0,-32767.0,0.391,1.268,-1.945,2.371
316,990.28,-249.144,1026.581,-14.267,45.092,40.68,-174.8,25.4,179.8,-20.0,-7.8,0.0,51345.5,7756.0,8022.0,-32767.0,0.422,1.2770000000000001,-1.955,2.356
317,988.789,-254.691,-64054.441,-12.548,1.146,26.241,-175.0,25.4,179.7,-20.0,-8.5,0.0,51345.5,32767.0,-32767.0,32767.0,0.462,1.284,-1.97,2.336
318,989.704,-259.598,-1115.247,92.59,-22.231,4.87,-175.2,25.1,179.9,-20.0,-9.3,0.0,51848.5,29938.0,-32767.0,32767.0,0.489,1.274,-2.012,2.316
319,991.427,-261.359,-1185.277,-105.424,-22.46,-43.545,-175.2,25.7,-179.7,-20.0,-9.2,0.0,53049.4,-32767.0,-21546.0,32767.0,0.515,1.25,-2.054,2.2960000000000003
320,991.099,-269.598,63965.914,14.668,82.678,-28.705,-175.2,25.6,-179.3,-20.0,-10.4,0.0,54229.2,32767.0,-32767.0,-32767.0,0.507,1.256,-2.146,2.281
321,990.989,-268.628,933.969,-85.543,-58.671,-39.706,-175.7,25.1,-178.8,-20.0,-12.0,0.0,56687.3,32767.0,-32767.0,-32767.0,0.547,1.256,-2.1710000000000003,2.2560000000000002
322,994.35,-272.7,942.404,158.881,-51.051,-8.995,-175.6,25.5,-178.8,-20.0,-12.3,0.0,57464.6,32767.0,32767.0,-32767.0,0.605,1.2690000000000001,-2.1470000000000002,2.235
323,993.562,-284.721,1015.02,-121.983,86.001,29.278,-175.5,24.8,-179.4,-20.0,-13.0,0.0,57026.1,32767.0,-32767.0,-32767.0,0.616,1.19,-2.174,2.232
324,993.11,-282.352,1133.136,166.158,-23.262,57.582,-175.4,25.7,179.8,-20.0,-13.1,0.0,57864.4,32767.0,-23561.0,-32767.0,0.655,1.229,-2.207,2.204
325,992.122,-292.177,-63980.375,-79.87,-3.667,115.05,-174.9,24.7,178.6,-20.0,-13.0,0.0,58850.7,22136.0,-32767.0,32767.0,0.671,1.175,-2.226,2.199
326,989.431,-286.845,-916.302,19.194,95.97,121.696,-174.4,24.9,177.4,-20.0,-12.8,0.0,59499.2,32767.0,-2118.0,32767.0,0.683,1.208,-2.306,2.174
327,986.492,-287.482,-912.968,20.397,-87.892,72.536,-173.7,24.4,176.6,-20.0,-12.8,0.0,61680.5,-3046.0,-32767.0,32767.0,0.6950000000000001,1.185,-2.3890000000000002,2.148
328,986.492,-286.572,-1118.87,-51.108,-76.261,80.959,-174.6,25.6,175.9,-20.0,-14.5,0.0,63952.8,32767.0,-13674.0,32767.0,0.774,1.2,-2.317,2.125
329,982.405,-293.112,-1124.324,-56.207,-69.614,35.867,-173.3,25.1,175.5,-20.0,-15.2,0.0,62337.4,-32767.0,-32767.0,32767.0,0.8140000000000001,1.185,-2.315,2.11
330,979.759,-301.97,-1035.577,127.712,142.953,36.039,-173.7,25.1,175.6,-20.0,-15.2,0.0,62460.1,32767.0,-32767.0,32767.0,0.8210000000000001,1.246,-2.356,2.107
331,982.338,-301.902,-1122.393,-132.411,-171.544,8.938,-172.8,25.0,175.0,-20.0,-16.1,0.0,63687.5,-32767.0,-32767.0,32767.0,0.856,1.176,-2.458,2.053
332,981.015,-307.224,-1085.324,99.924,101.929,58.327,-173.1,24.6,174.6,-20.0,-16.6,0.0,66431.4,32767.0,-32767.0,32767.0,0.884,1.238,-2.438,2.057
333,978.202,-309.679,-1133.891,-118.545,-121.238,51.394,-172.7,25.1,174.3,-20.0,-17.2,0.0,66124.8,-32767.0,-32767.0,32767.0,0.914,1.196,-2.488,2.033
334,978.238,-310.666,-1098.62,-67.036,171.085,-27.158,-172.9,25.4,174.8,-20.0,-17.8,0.0,67602.7,32767.0,6325.0,32767.0,0.9430000000000001,1.226,-2.478,2.0340000000000003
335,975.625,-317.543,-1098.644,119.805,-148.167,-78.381,-173.8,25.2,176.0,-20.0,-19.2,0.0,67547.4,32767.0,-32767.0,32767.0,0.988,1.2710000000000001,-2.496,1.993
336,978.426,-326.432,-1134.554,-106.513,137.567,-117.915,-173.7,25.7,177.3,-20.0,-19.6,0.0,68211.0,32767.0,-32767.0,32767.0,0.988,1.217,-2.548,2.02
337,981.678,-329.469,-1111.24,12.949,-185.868,-131.437,-175.9,25.2,178.7,-20.0,-20.0,0.0,68767.0,32767.0,-32767.0,32767.0,1.042,1.2690000000000001,-2.551,1.974
338,981.844,-333.704,-1127.997,-61.536,101.356,-143.297,-175.7,25.7,-179.7,-20.0,-20.0,0.0,68767.0,32767.0,-32767.0,32767.0,1.091,1.286,-2.5100000000000002,1.982
339,994.768,-331.559,-1140.566,166.272,-166.33,-178.476,-176.5,26.1,-177.6,-20.0,-20.0,0.0,68767.0,32767.0,-32767.0,-32767.0,1.097,1.311,-2.636,1.92
340,994.731,-333.696,1007.515,-142.151,201.796,-175.726,-176.9,26.5,-175.8,-20.0,-20.0,0.0,68767.0,-32767.0,-2650.0,-32767.0,1.094,1.291,-2.669,1.974
341,1001.315,-338.725,675.096,41.024,-84.397,-124.275,-178.1,26.1,-174.7,-20.0,-20.0,0.0,68767.0,32767.0,-32767.0,-32767.0,1.159,1.301,-2.676,1.909
342,1008.424,-336.705,779.045,-123.358,56.322,-113.961,-179.0,25.9,-173.7,-19.9,-20.0,0.0,68767.0,32767.0,-32767.0,-32767.0,1.199,1.314,-2.6430000000000002,1.94
343,1014.711,-335.156,812.641,175.955,-26.585,-74.943,-177.5,25.6,-173.3,-19.5,-20.0,0.0,68767.0,-32767.0,-32767.0,-32767.0,1.158,1.33,-2.823,1.911
344,1008.369,-333.819,894.191,-252.101,166.673,18.736,-179.2,26.1,-173.1,-19.3,-20.0,0.0,68767.0,32767.0,-32767.0,-32767.0,1.18,1.349,-2.84,1.9180000000000001
345,1019.852,-336.717,950.078,40.565,-170.34,-13.923,-178.6,27.7,-173.1,-19.2,-20.0,0.0,68767.0,32767.0,-32767.0,-32767.0,1.247,1.316,-2.821,1.8860000000000001
346,1016.628,-346.434,983.084,82.219,-42.227,-23.663,-177.5,26.5,-173.2,-19.2,-20.0,0.0,68767.0,32767.0,-32767.0,-32767.0,1.243,1.335,-2.892,1.893
347,1009.622,-339.011,996.09,4.927,218.469,7.162,-178.2,25.8,-173.4,-19.3,-20.0,0.0,68767.0,32767.0,-32767.0,-32767.0,1.235,1.368,-2.951,1.945
348,1013.405,-334.659,1005.253,37.586,-186.211,36.268,-177.6,25.8,-173.6,-19.3,-20.0,0.0,68767.0,32767.0,-32767.0,-32767.0,1.2510000000000001,1.337,-3.068,1.866
349,1009.996,-334.852,1021.472,-24.293,176.127,5.558,-178.8,25.0,-173.7,-19.4,-20.0,0.0,68767.0,32767.0,-32767.0,-32767.0,1.305,1.374,-2.997,1.9100000000000001
350,1010.212,-334.664,977.794,-98.835,-2.177,14.84,-177.7,25.7,-174.3,-19.4,-20.0,0.0,68767.0,32767.0,-5811.0,-32767.0,1.295,1.345,-3.114,1.909
351,1014.774,-330.031,1009.323,168.679,9.855,69.901,-177.8,25.5,-175.1,-19.7,-20.0,0.0,68767.0,32767.0,-32767.0,-32767.0,1.268,1.3860000000000001,-3.253,1.877
352,1007.947,-334.378,995.996,36.669,-32.716,78.438,-176.6,25.8,-175.8,-20.0,-20.0,0.0,68767.0,32767.0,-32767.0,-32767.0,1.326,1.393,-3.215,1.875
353,1007.163,-332.879,992.42,30.252,-44.633,84.339,-176.6,26.0,-177.0,-20.0,-20.0,0.0,68767.0,32767.0,-32767.0,-32767.0,1.354,1.381,-3.27,1.827
354,999.046,-334.545,1021.361,-39.477,132.468,86.803,-176.4,25.2,-178.0,-20.0,-20.0,0.0,68767.0,32767.0,-32767.0,-32767.0,1.354,1.407,-3.342,1.823
355,1000.822,-336.044,985.46,-96.543,-248.435,106.685,-175.1,26.3,-179.3,-20.0,-20.0,0.0,68767.0,32767.0,-32767.0,-32767.0,1.411,1.359,-3.369,1.74
356,998.13,-331.496,1023.876,181.398,-41.654,104.278,-173.8,26.1,179.6,-20.0,-20.0,0.0,68767.0,32767.0,-32767.0,-32767.0,1.455,1.414,-3.341,1.793
357,990.528,-338.05,1033.349,-51.623,113.446,111.154,-174.7,25.3,178.5,-20.0,-20.0,0.0,68767.0,32767.0,-32767.0,32767.0,1.448,1.423,-3.4330000000000003,1.848
358,983.05,-336.548,-1121.609,-103.591,53.17,67.093,-174.4,25.6,177.9,-20.0,-20.0,0.0,68767.0,32767.0,-32767.0,32767.0,1.442,1.41,-3.547,1.836
359,988.247,-331.878,-1117.062,-19.882,-191.769,34.435,-173.8,25.8,177.3,-20.0,-20.0,0.0,68767.0,32767.0,-32767.0,32767.0,1.491,1.3960000000000001,-3.56,1.772
360,986.133,-333.555,-1114.836,63.025,84.626,51.108,-173.5,25.2,177.0,-20.0,-20.0,0.0,68767.0,32767.0,-32767.0,32767.0,1.551,1.445,-3.507,1.811
361,981.167,-331.132,-1056.319,-33.403,79.469,11.688,-174.0,24.9,176.9,-20.0,-20.0,0.0,68767.0,32767.0,-32767.0,32767.0,1.544,1.443,-3.625,1.776
362,984.273,-329.529,-1078.282,62.395,-72.135,9.74,-173.8,25.4,176.7,-20.0,-20.0,0.0,68767.0,32767.0,-32767.0,32767.0,1.53,1.451,-3.758,1.649
363,982.685,-332.16,-1085.242,-9.397,26.528,5.901,-173.7,24.9,176.8,-20.0,-20.0,0.0,68767.0,32767.0,-32767.0,32767.0,1.653,1.48,-3.6,1.692
364,982.379,-329.62,-1129.085,6.933,32.487,-38.904,-173.9,25.1,177.2,-20.0,-20.0,0.0,68767.0,32767.0,-32767.0,32767.0,1.726,1.52,-3.5340000000000003,1.709
365,983.106,-330.886,-1187.945,42.571,-1.261,-32.258,-174.6,25.6,177.9,-20.0,-20.0,0.0,68767.0,32767.0,-32767.0,32767.0,1.731,1.5210000000000001,-3.622,1.695
366,987.593,-333.467,-1253.893,-43.086,24.122,-124.446,-174.9,25.0,179.2,-20.0,-20.0,0.0,68767.0,32767.0,-32767.0,32767.0,1.81,1.5090000000000001,-3.575,1.712
367,989.131,-330.075,-1360.699,-42.284,-53.113,-115.222,-175.5,25.8,-179.6,-20.0,-20.0,0.0,68767.0,32767.0,-32767.0,32767.0,1.819,1.5110000000000001,-3.657,1.676
368,987.689,-330.192,-1100.876,115.852,62.51,-116.654,-176.2,25.8,-178.4,-20.0,-20.0,0.0,68767.0,32767.0,-32767.0,-32767.0,1.784,1.577,-3.8040000000000003,1.699
369,994.448,-335.077,994.832,-189.133,-97.632,-84.626,-175.7,25.6,-178.0,-20.0,-20.0,0.0,68767.0,32767.0,-32767.0,-32767.0,1.861,1.5310000000000001,-3.781,1.691
370,995.947,-335.15,1043.45,47.842,-64.916,-18.449,-176.2,25.7,-178.2,-20.0,-20.0,0.0,68767.0,32767.0,-3964.0,-32767.0,1.9120000000000001,1.595,-3.755,1.737
371,993.533,-333.754,1028.266,-11.516,97.403,34.607,-175.7,25.8,-178.8,-20.0,-20.0,0.0,68767.0,32767.0,-32767.0,-32767.0,1.947,1.6280000000000001,-3.7720000000000002,1.7630000000000001
372,996.929,-334.104,1016.354,17.819,-53.4,44.232,-175.7,25.4,-179.4,-20.0,-20.0,0.0,68767.0,32767.0,-32767.0,-32767.0,1.977,1.635,-3.806,1.734
373,994.403,-334.797,1023.298,-125.019,-50.306,67.208,-175.0,25.1,179.7,-20.0,-20.0,0.0,68767.0,32767.0,-32767.0,-32767.0,2.025,1.645,-3.809,1.726
374,992.941,-332.392,1062.827,85.371,0.172,70.245,-174.4,26.1,178.6,-20.0,-20.0,0.0,68767.0,32767.0,32767.0,32767.0,2.09,1.722,-3.754,1.798
375,989.448,-330.608,-1107.483,151.433,56.608,81.99,-173.6,25.8,177.6,-20.0,-20.0,0.0,68767.0,32767.0,-32767.0,32767.0,2.1510000000000002,1.7770000000000001,-3.706,1.819
376,986.719,-336.986,-1127.954,-157.793,-7.391,110.81,-174.0,25.3,176.5,-20.0,-20.0,0.0,68767.0,32767.0,-32767.0,32767.0,2.213,1.7710000000000001,-3.697,1.836
377,981.003,-334.768,-1101.808,82.105,71.964,71.792,-173.4,25.7,175.8,-20.0,-20.0,0.0,68767.0,32767.0,-32767.0,32767.0,2.239,1.817,-3.726,1.837
378,984.032,-331.963,-1115.962,-74.599,-35.753,56.837,-173.1,25.3,175.6,-20.0,-20.0,0.0,68767.0,32767.0,-32767.0,32767.0,2.307,1.821,-3.6950000000000003,1.844
379,979.847,-334.074,-1102.358,52.196,42.972,1.547,-173.1,25.4,175.2,-20.0,-20.0,0.0,68767.0,32767.0,-32767.0,32767.0,2.364,1.852,-3.673,1.849
380,978.832,-332.231,-1105.413,-13.235,4.927,41.482,-172.6,25.5,174.8,-20.0,-20.0,0.0,68767.0,32767.0,-32767.0,32767.0,2.391,1.867,-3.719,1.869
381,978.494,-332.564,-1110.054,2.406,99.179,22.116,-172.9,25.5,174.8,-20.0,-19.9,0.0,68767.0,32767.0,-32767.0,32767.0,2.449,1.879,-3.704,1.874
382,975.5,-332.368,-1113.693,-69.729,-147.709,-16.387,-172.1,25.6,174.2,-20.0,-19.7,0.0,68767.0,32767.0,-32767.0,32767.0,2.482,1.8860000000000001,-3.735,1.837
383,974.523,-331.268,-1036.867,10.829,43.946,52.769,-171.6,25.4,173.8,-20.0,-19.7,0.0,68767.0,32767.0,-32767.0,32767.0,2.52,2.05,-3.706,1.971
384,972.436,-331.518,-1106.023,80.386,26.413,9.798,-172.2,25.5,173.8,-20.0,-19.5,0.0,68767.0,32767.0,-32767.0,32767.0,2.596,2.078,-3.646,1.965
385,969.937,-329.346,-1108.166,-83.48,8.537,5.558,-171.9,25.4,173.9,-20.0,-19.5,0.0,68767.0,32767.0,-32767.0,32767.0,2.628,2.087,-3.6870000000000003,1.971
386,972.626,-329.635,-1105.23,76.49,-25.611,-27.731,-171.9,25.5,173.9,-20.0,-19.5,0.0,68767.0,32767.0,-32767.0,32767.0,2.62,2.108,-3.785,1.939
387,971.08,-329.6,-1103.024,31.341,119.175,15.355,-172.6,25.5,174.1,-20.0,-19.6,0.0,68767.0,32767.0,-32767.0,32767.0,2.67,2.1350000000000002,-3.789,1.979
388,972.452,-330.549,-1131.834,-35.924,-53.572,-29.794,-172.4,25.9,174.3,-20.0,-19.6,0.0,68767.0,32767.0,-32767.0,32767.0,2.692,2.099,-3.882,1.972
389,975.329,-330.867,-1108.628,-24.236,-34.549,-31.226,-172.7,25.4,174.7,-20.0,-19.7,0.0,68767.0,32767.0,-32767.0,32767.0,2.74,2.13,-3.88,1.984
390,974.406,-333.575,-1127.8,-38.503,-44.863,-20.569,-172.4,25.7,175.0,-20.0,-19.8,0.0,68767.0,32767.0,-32767.0,32767.0,2.79,2.133,-3.8810000000000002,1.942
391,974.98,-331.251,-1102.228,111.669,75.802,-72.365,-173.2,25.6,175.7,-20.0,-20.0,0.0,68767.0,32767.0,-32767.0,32767.0,2.811,2.195,-3.9090000000000003,1.945
392,974.625,-334.552,-1125.154,33.461,110.18,-33.232,-173.2,26.1,176.1,-20.0,-20.0,0.0,68767.0,32767.0,-32767.0,32767.0,2.873,2.207,-3.912,1.987
393,979.4,-333.822,-1138.203,-27.846,-101.242,-67.666,-173.1,25.9,176.5,-20.0,-20.0,0.0,68767.0,32767.0,-32767.0,32767.0,2.887,2.21,-3.981,1.948
394,979.064,-336.773,-1142.622,-58.9,-26.986,-6.818,-173.2,25.9,176.2,-20.0,-20.0,0.0,68767.0,32767.0,-32767.0,32767.0,2.899,2.212,-4.057,1.9080000000000001
395,976.91,-336.667,-1051.624,62.338,-17.59,-38.961,-172.8,26.4,176.4,-20.0,-20.0,0.0,68767.0,32767.0,-32767.0,32767.0,3.095,2.384,-3.871,2.33
396,978.989,-335.391,-1136.454,37.242,65.776,-2.464,-173.6,26.4,176.9,-20.0,-20.0,0.0,68767.0,32767.0,-32767.0,32767.0,3.152,2.416,-3.831,2.325
397,977.624,-338.643,-1162.123,-70.474,-19.767,-60.39,-173.8,26.4,177.9,-20.0,-20.0,0.0,68767.0,32767.0,-32767.0,32767.0,3.1870000000000003,2.387,-3.884,2.305
398,980.953,-338.316,-1142.301,9.74,-3.266,-135.447,-174.9,26.8,179.7,-20.0,-20.0,0.0,68767.0,32767.0,-32767.0,32767.0,3.21,2.419,-3.918,2.285
399,982.723,-338.078,-1153.839,111.899,49.618,-170.741,-175.3,27.0,-178.4,-20.0,-20.0,0.0,68767.0,32767.0,-32767.0,32767.0,3.273,2.449,-3.882,2.271
400,990.112,-340.792,-1181.517,-104.679,-89.782,-173.262,-176.2,26.7,-177.0,-20.0,-20.0,0.0,68767.0,32767.0,-32767.0,-32767.0,3.327,2.438,-3.891,2.261
401,991.259,-342.081,982.673,73.339,-12.949,-87.663,-176.6,27.1,-175.9,-20.0,-20.0,0.0,68767.0,32767.0,-32767.0,-32767.0,3.362,2.463,-3.912,2.231
402,997.684,-340.045,967.937,-40.279,25.382,-108.977,-177.3,26.8,-175.1,-20.0,-20.0,0.0,68767.0,32767.0,-32767.0,-32767.0,3.44,2.473,-3.862,2.219
403,999.534,-342.604,971.221,-12.376,42.743,-67.552,-177.5,26.9,-174.3,-19.7,-20.0,0.0,68767.0,32767.0,-32767.0,-32767.0,3.475,2.49,-3.892,2.227
404,1003.639,-340.976,970.067,65.374,-19.939,-70.989,-178.2,27.2,-173.0,-19.2,-20.0,0.0,68767.0,32767.0,-32767.0,-32767.0,3.47,2.5100000000000002,-3.987,2.201
